{"public/index.html":"<!DOCTYPE html>\r\n<html lang=\"en\">\r\n\r\n<head>\r\n    <meta charset=\"utf-8\">\r\n    <meta http-equiv=\"X-UA-Compatible\" content=\"IE=edge\">\r\n    <meta name=\"viewport\" content=\"width=device-width,initial-scale=1.0\">\r\n    <link rel=\"icon\" href=\"<%= BASE_URL %>favicon.ico\">\r\n    <title>\r\n        <%= htmlWebpackPlugin.options.title %>\r\n    </title>\r\n    <link href=\"https://cdn.syncfusion.com/ej2/28.1.33/{{theme}}.css\" rel=\"stylesheet\">\r\n    <link href=\"https://maxcdn.bootstrapcdn.com/bootstrap/3.3.7/css/bootstrap.min.css\" rel=\"stylesheet\" />\r\n</head>\r\n\r\n<body>\r\n    <noscript>\r\n        <strong>We're sorry but <%= htmlWebpackPlugin.options.title %> doesn't work properly without JavaScript enabled.\r\n        Please enable it to continue.</strong>\r\n    </noscript>\r\n    <div id=\"app\"></div>\r\n    <style>\r\n            .control-section\r\n            {\r\n                margin-top: 100px;\r\n            }\r\n    </style>\r\n    <!-- built files will be auto injected -->\r\n</body>\r\n\r\n</html>\r\n","src/App.vue":"<template>\n<div class=\"maps-container\">\n<ejs-maps class=\"map-container\" :load='load' style='display:block;height:100%;width:100%;' ref=\"mapInstance\" :legendSettings='legendSettings'>\n    <e-layers>\n        <e-layer :shapeData='shapeData' :shapePropertyPath='shapePropertyPath' :shapeDataPath='shapeDataPath' :dataSource='dataSource' :shapeSettings='shapeSettings' :markerSettings='markerSettings'></e-layer>\n    </e-layers>\n</ejs-maps>\n\n</div>\n</template>\n<style>\n    .dashboard-seo .markerTemplate {\n        font-size: 12px;\n        color: white;\n        text-shadow: 0px 1px 1px black;\n        font-weight: 500\n    }\n</style>\n<script>\nimport { MapsComponent,Legend, Marker, MapsTooltip, MapAjax, LayersDirective, LayerDirective } from '@syncfusion/ej2-vue-maps';\n\nexport default {\n  components: {\n    'ejs-maps': MapsComponent,\n    'e-layer': LayerDirective,\n    'e-layers': LayersDirective\n  },\ndata:function(){\n    return{\n        legendSettings: {\n            visible: false\n        },\n        shapeData:new MapAjax('https://ej2.syncfusion.com/vue/demos/src/dashboard-layout/map-data/world-map.json'),\n        shapePropertyPath: 'continent',\n        shapeDataPath: 'continent',\n        dataSource:new MapAjax('https://ej2.syncfusion.com/vue/demos/src/dashboard-layout/map-data/default-datasource.json'),\n        shapeSettings: {\n                    colorValuePath: 'color',\n        },\n        markerSettings: [\n                    {\n                        visible: true,\n                        dataSource: [\n                            { latitude: 37.6276571, longitude: -122.4276688, name: 'San Bruno' },\n                            { latitude: 33.5302186, longitude: -117.7418381, name: 'Laguna Niguel' },\n                            { latitude: 40.7424509, longitude: -74.0081468, name: 'New York' },\n                            { latitude: -23.5268201, longitude: -46.6489927, name: 'Bom Retiro' },\n                            { latitude: 43.6533855, longitude: -79.3729994, name: 'Toronto' },\n                            { latitude: 48.8773406, longitude: 2.3299627, name: 'Paris' },\n                            { latitude: 52.4643089, longitude: 13.4107368, name: 'Berlin' },\n                            { latitude: 19.1555762, longitude: 72.8849595, name: 'Mumbai' },\n                            { latitude: 35.6628744, longitude: 139.7345469, name: 'Minato' },\n                            { latitude: 51.5326602, longitude: -0.1262422, name: 'London' }\n                        ],\n                        shape: 'Image',\n                        imageUrl: 'https://ej2.syncfusion.com/vue/demos/src/dashboard-layout/images/ballon.png',\n                        height: 20,\n                        width: 20,\n                        offset: {\n                            y: -10,\n                            x: 0\n                        },\n                        tooltipSettings: {\n                            visible: true,\n                            valuePath: 'name'\n                        },\n                        animationDuration: 0\n                    },\n                    {\n                        visible: true,\n                        tooltipSettings: {\n                            visible: true\n                        },\n                        template: '<div id=\"marker1\" class=\"markerTemplate\">Asia' +\n                            '</div>',\n                        dataSource: [\n                            { latitude: 50.32087157990324, longitude: 90.015625 }\n                        ],\n                        animationDuration: 0\n                    },\n                    {\n                        visible: true,\n                        template: '<div id=\"marker2\" class=\"markerTemplate\">Australia' +\n                            '</div>',\n                        dataSource: [\n                            { latitude: -25.88583769986199, longitude: 134.296875 }\n                        ],\n                        animationDuration: 0\n                    },\n                    {\n                        visible: true,\n                        template: '<div id=\"marker3\" class=\"markerTemplate\">Africa' +\n                            '</div>',\n                        dataSource: [\n                            { latitude: 16.97274101999902, longitude: 16.390625 }\n                        ],\n                        animationDuration: 0\n                    },\n                    {\n                        visible: true,\n                        template: '<div id=\"marker4\" class=\"markerTemplate\">Europe' +\n                            '</div>',\n                        dataSource: [\n                            { latitude: 49.95121990866204, longitude: 18.468749999999998 }\n                        ],\n                        animationDuration: 0,\n                    },\n                    {\n                        visible: true,\n                        template: '<div id=\"marker5\" class=\"markerTemplate\" style=\"width:50px\">North America' +\n                            '</div>',\n                        dataSource: [\n                            { latitude: 59.88893689676585, longitude: -109.3359375 }\n                        ],\n                        animationDuration: 0\n                    },\n                    {\n                        visible: true,\n                        template: '<div id=\"marker6\" class=\"markerTemplate\" style=\"width:50px\">South America' +\n                            '</div>',\n                        dataSource: [\n                            { latitude: -6.64607562172573, longitude: -55.54687499999999 }\n                        ],\n                        animationDuration: 0\n                    },\n                ]\n    }\n},\nprovide: {\n    maps: [Legend, Marker, MapsTooltip]\n},\nmethods: {\n    load: function(args) {\n      let selectedTheme = location.hash.split(\"/\")[1];\n      selectedTheme = selectedTheme ? selectedTheme : \"Material\";\n      args.maps.theme = (selectedTheme.charAt(0).toUpperCase() + selectedTheme.slice(1)).replace(/-dark/i, \"Dark\");\n    }\n},\nmounted() {\n    this.$refs.mapInstance.ej2Instances.height =\"100%\";\n    this.$refs.mapInstance.ej2Instances.width =\"100%\";\n  }\n\n}\n</script>\n<style>\n.dashboard-seo .map-container,.dashboard-seo .maps-container{\n    height:100%;\n    width: 100%;\n}\n</style>","dependencies":"{\"vue\":\"3.3.4\",\"@syncfusion/ej2-base\":\"*\",\"@syncfusion/ej2-vue-base\":\"*\",\"@syncfusion/ej2-maps\":\"*\",\"@syncfusion/ej2-vue-maps\":\"*\",\"@syncfusion/ej2-vue-charts\":\"*\"}","src/main.js":"import { createApp } from 'vue'\nimport App from './App.vue'\ncreateApp(App).mount('#app')"}